#name,x,y,alt,heading,pitch,roll,f,px,py,k1,k2,k3,k4,t1,t2
0036_tilt_010_pan_000_f70.jpg,1.406344667267665e-004,-0.5211842556971739,3.829301270524602,-6.943896801390769e-003,9.996700873281458,3.76397672834957e-003,69.91591842185127,-3.933454645693081e-005,4.21002829748343e-004,1.26203957897009e-002,-0.2262554474196144,1.347311069064249,0,0,0
0037_tilt_010_pan_010_f70.jpg,9.087757660782919e-002,-0.513700476328295,3.83002874392223,-10.02843152108794,10.00416897627897,2.565617249685083e-003,69.91591842185127,-3.933454645693081e-005,4.21002829748343e-004,1.26203957897009e-002,-0.2262554474196144,1.347311069064249,0,0,0
0038_tilt_010_pan_020_f70.jpg,0.1780539659021366,-0.4909586010480886,3.830045091385069,-20.01267894968192,10.01775197883919,-1.533867541534036e-002,69.91591842185127,-3.933454645693081e-005,4.21002829748343e-004,1.26203957897009e-002,-0.2262554474196144,1.347311069064249,0,0,0
0039_tilt_010_pan_030_f70.jpg,0.2593856954321645,-0.4521088328207123,3.830141556977557,-29.99402758700729,9.994145495180479,-2.938303379340036e-002,69.91591842185127,-3.933454645693081e-005,4.21002829748343e-004,1.26203957897009e-002,-0.2262554474196144,1.347311069064249,0,0,0
0040_tilt_010_pan_040_f70.jpg,0.3348757092841266,-0.3990382660297516,3.829925296639696,-40.03620463838424,9.988522786058626,-6.057139452080211e-003,69.91591842185127,-3.933454645693081e-005,4.21002829748343e-004,1.26203957897009e-002,-0.2262554474196144,1.347311069064249,0,0,0
0041_tilt_010_pan_050_f70.jpg,0.3981062523870531,-0.3360413825454284,3.831113007333317,-49.99957633358613,9.984779783037999,-3.558747101569134e-002,69.91591842185127,-3.933454645693081e-005,4.21002829748343e-004,1.26203957897009e-002,-0.2262554474196144,1.347311069064249,0,0,0
0042_tilt_010_pan_060_f70.jpg,0.4506120251747355,-0.2606287690490997,3.830152203195759,-60.01001729786417,9.97760106115661,-9.828898833728823e-003,69.91591842185127,-3.933454645693081e-005,4.21002829748343e-004,1.26203957897009e-002,-0.2262554474196144,1.347311069064249,0,0,0
0043_tilt_010_pan_070_f70.jpg,0.4902136795741974,-0.1798543313628741,3.829356086512479,-70.01625565928805,10.01701810413031,-3.439344237570927e-002,69.91591842185127,-3.933454645693081e-005,4.21002829748343e-004,1.26203957897009e-002,-0.2262554474196144,1.347311069064249,0,0,0
0044_tilt_010_pan_080_f70.jpg,0.51403811320779,-9.196404124032714e-002,3.829511175552295,-80.03925972289089,10.01569943804978,-3.613909574486519e-002,69.91591842185127,-3.933454645693081e-005,4.21002829748343e-004,1.26203957897009e-002,-0.2262554474196144,1.347311069064249,0,0,0
0045_tilt_010_pan_090_f70.jpg,0.522458081005865,-1.086919760727125e-004,3.828821264777631,-90.05641311869238,10.02402348817934,-9.672767624723681e-003,69.91591842185127,-3.933454645693081e-005,4.21002829748343e-004,1.26203957897009e-002,-0.2262554474196144,1.347311069064249,0,0,0
0046_tilt_010_pan_100_f70.jpg,0.5149864010462902,9.165541287467018e-002,3.828697558867044,-100.0488039906891,10.04015866925854,1.464920242235748e-002,69.91591842185127,-3.933454645693081e-005,4.21002829748343e-004,1.26203957897009e-002,-0.2262554474196144,1.347311069064249,0,0,0
0047_tilt_010_pan_110_f70.jpg,0.4909065891078195,0.1788391914097946,3.827718567489175,-110.0366547702897,10.03211574783191,7.924268759866925e-004,69.91591842185127,-3.933454645693081e-005,4.21002829748343e-004,1.26203957897009e-002,-0.2262554474196144,1.347311069064249,0,0,0
0048_tilt_010_pan_120_f70.jpg,0.4523434318737874,0.2607491509131367,3.828635607149546,-120.0639788043859,10.01878668747598,-1.73875881674047e-002,69.91591842185127,-3.933454645693081e-005,4.21002829748343e-004,1.26203957897009e-002,-0.2262554474196144,1.347311069064249,0,0,0
0049_tilt_010_pan_130_f70.jpg,0.4008510831531212,0.3349805910513539,3.828051096625431,-130.0369766686838,10.02705029503201,-2.758985829326149e-002,69.91591842185127,-3.933454645693081e-005,4.21002829748343e-004,1.26203957897009e-002,-0.2262554474196144,1.347311069064249,0,0,0
0050_tilt_010_pan_140_f70.jpg,0.3356996997366147,0.3996566710736406,3.828055785747498,-140.0145468938757,10.01727850362527,-6.225661788139547e-003,69.91591842185127,-3.933454645693081e-005,4.21002829748343e-004,1.26203957897009e-002,-0.2262554474196144,1.347311069064249,0,0,0
0051_tilt_010_pan_150_f70.jpg,0.2611387863297028,0.4521041751535949,3.828724579187511,-150.0001609753101,10.01689718931424,1.145118283923458e-004,69.91591842185127,-3.933454645693081e-005,4.21002829748343e-004,1.26203957897009e-002,-0.2262554474196144,1.347311069064249,0,0,0
0052_tilt_010_pan_160_f70.jpg,0.1783380474142029,0.4895730461142433,3.828498709549363,-160.0192618529339,9.99922982605273,-3.280139586138804e-003,69.91591842185127,-3.933454645693081e-005,4.21002829748343e-004,1.26203957897009e-002,-0.2262554474196144,1.347311069064249,0,0,0
0053_tilt_010_pan_170_f70.jpg,9.053390065940101e-002,0.5131546490591637,3.828687160819708,-170.0187465000996,9.998913633625289,-3.285716183540123e-003,69.91591842185127,-3.933454645693081e-005,4.21002829748343e-004,1.26203957897009e-002,-0.2262554474196144,1.347311069064249,0,0,0
0054_tilt_010_pan_180_f70.jpg,-6.800351147592722e-009,0.5205784768602224,3.829592220088879,179.9852450823175,9.983723185190703,-1.058034869245263e-003,69.91591842185127,-3.933454645693081e-005,4.21002829748343e-004,1.26203957897009e-002,-0.2262554474196144,1.347311069064249,0,0,0
0055_tilt_010_pan_190_f70.jpg,-9.045996617696511e-002,0.5136554423334632,3.8285713005263,169.9685881442452,10.00997116493328,-7.264684835486554e-003,69.91591842185127,-3.933454645693081e-005,4.21002829748343e-004,1.26203957897009e-002,-0.2262554474196144,1.347311069064249,0,0,0
0056_tilt_010_pan_200_f70.jpg,-0.1787492501744651,0.48918226918152,3.828729457347621,159.9567065116199,9.994692020126786,4.992512887001081e-003,69.91591842185127,-3.933454645693081e-005,4.21002829748343e-004,1.26203957897009e-002,-0.2262554474196144,1.347311069064249,0,0,0
0057_tilt_010_pan_210_f70.jpg,-0.2612806815193124,0.4511743316777973,3.829858078107755,149.9659605840639,9.998531548673968,9.537067592378108e-003,69.91591842185127,-3.933454645693081e-005,4.21002829748343e-004,1.26203957897009e-002,-0.2262554474196144,1.347311069064249,0,0,0
0058_tilt_010_pan_220_f70.jpg,-0.3349608413457907,0.3993335021183205,3.829404828326697,139.9857201455867,9.999022651635824,-5.979718312832966e-003,69.91591842185127,-3.933454645693081e-005,4.21002829748343e-004,1.26203957897009e-002,-0.2262554474196144,1.347311069064249,0,0,0
0059_tilt_010_pan_230_f70.jpg,-0.3990567581003711,0.3345885249352356,3.82946790348136,130.0050595800546,9.990863195706897,7.984314252290682e-004,69.91591842185127,-3.933454645693081e-005,4.21002829748343e-004,1.26203957897009e-002,-0.2262554474196144,1.347311069064249,0,0,0
0060_tilt_010_pan_240_f70.jpg,-0.4513041456684288,0.260344930656675,3.82978758879491,119.9744767474875,9.990971489734036,-3.506992011176023e-003,69.91591842185127,-3.933454645693081e-005,4.21002829748343e-004,1.26203957897009e-002,-0.2262554474196144,1.347311069064249,0,0,0
0061_tilt_010_pan_250_f70.jpg,-0.4893412796751457,0.1784237061531727,3.829328376149678,109.9943422056737,9.987181919945158,-1.178297992584061e-002,69.91591842185127,-3.933454645693081e-005,4.21002829748343e-004,1.26203957897009e-002,-0.2262554474196144,1.347311069064249,0,0,0
0062_tilt_010_pan_260_f70.jpg,-0.5122169113694037,9.051835762235258e-002,3.829488317531811,99.96653800189365,9.969485267111782,-1.383334526130331e-002,69.91591842185127,-3.933454645693081e-005,4.21002829748343e-004,1.26203957897009e-002,-0.2262554474196144,1.347311069064249,0,0,0
0063_tilt_010_pan_270_f70.jpg,-0.5202363335237177,-7.748584256272435e-004,3.829660238184789,89.98948126370421,9.972517304163935,1.572944628817056e-002,69.91591842185127,-3.933454645693081e-005,4.21002829748343e-004,1.26203957897009e-002,-0.2262554474196144,1.347311069064249,0,0,0
0064_tilt_010_pan_280_f70.jpg,-0.5134637015210689,-9.051680679227957e-002,3.828653924380697,79.99434373035092,9.999680235544076,-2.694284928664844e-003,69.91591842185127,-3.933454645693081e-005,4.21002829748343e-004,1.26203957897009e-002,-0.2262554474196144,1.347311069064249,0,0,0
0065_tilt_010_pan_290_f70.jpg,-0.4900123685004661,-0.1785380152220415,3.829388708236987,69.99485554266649,10.00116133870751,2.311162172450045e-003,69.91591842185127,-3.933454645693081e-005,4.21002829748343e-004,1.26203957897009e-002,-0.2262554474196144,1.347311069064249,0,0,0
0066_tilt_010_pan_300_f70.jpg,-0.4514406642275091,-0.2611240581970132,3.829240525425637,59.99027371931761,10.00143087852341,7.877919180014441e-003,69.91591842185127,-3.933454645693081e-005,4.21002829748343e-004,1.26203957897009e-002,-0.2262554474196144,1.347311069064249,0,0,0
0067_tilt_010_pan_310_f70.jpg,-0.3992375793481753,-0.3359055027549377,3.829176175497533,49.98759125273708,10.00675244920874,1.404264397878803e-002,69.91591842185127,-3.933454645693081e-005,4.21002829748343e-004,1.26203957897009e-002,-0.2262554474196144,1.347311069064249,0,0,0
0068_tilt_010_pan_320_f70.jpg,-0.33444006539313,-0.3998518280306496,3.82844295200761,39.97565188764839,10.0001143142841,1.675809603124304e-002,69.91591842185127,-3.933454645693081e-005,4.21002829748343e-004,1.26203957897009e-002,-0.2262554474196144,1.347311069064249,0,0,0
0069_tilt_010_pan_330_f70.jpg,-0.26011592772169,-0.4516152600554383,3.829683223051849,29.96499615620954,9.993714766142528,7.106194582327752e-003,69.91591842185127,-3.933454645693081e-005,4.21002829748343e-004,1.26203957897009e-002,-0.2262554474196144,1.347311069064249,0,0,0
0070_tilt_010_pan_340_f70.jpg,-0.1778313636367352,-0.4895587637538237,3.829228185237128,19.98789615401692,9.988299258963101,5.375817404181331e-003,69.91591842185127,-3.933454645693081e-005,4.21002829748343e-004,1.26203957897009e-002,-0.2262554474196144,1.347311069064249,0,0,0
0071_tilt_010_pan_350_f70.jpg,-8.97824651309298e-002,-0.5136709786908913,3.829577610069581,9.9779741529396,10.00183969958417,1.524286754177e-002,69.91591842185127,-3.933454645693081e-005,4.21002829748343e-004,1.26203957897009e-002,-0.2262554474196144,1.347311069064249,0,0,0
0072_tilt_020_pan_000_f70.jpg,-2.026036923647467e-005,-1.027335306716758,3.694709205027328,-7.967502412430624e-003,20.01505038992402,-3.603097609653379e-003,69.91591842185127,-3.933454645693081e-005,4.21002829748343e-004,1.26203957897009e-002,-0.2262554474196144,1.347311069064249,0,0,0
0073_tilt_020_pan_010_f70.jpg,0.1781618323862362,-1.011025641426283,3.693821174255195,-10.02523568894588,20.00580849896091,-1.20229244480816e-002,69.91591842185127,-3.933454645693081e-005,4.21002829748343e-004,1.26203957897009e-002,-0.2262554474196144,1.347311069064249,0,0,0
0074_tilt_020_pan_020_f70.jpg,0.3511250280770745,-0.964267148195475,3.69367058804285,-20.0108353180036,19.99901607646693,-2.873595842189963e-003,69.91591842185127,-3.933454645693081e-005,4.21002829748343e-004,1.26203957897009e-002,-0.2262554474196144,1.347311069064249,0,0,0
0075_tilt_020_pan_030_f70.jpg,0.5131008112749207,-0.8893686280663602,3.694639742678409,-30.01110448043443,20.0043826178233,-1.134526011938516e-002,69.91591842185127,-3.933454645693081e-005,4.21002829748343e-004,1.26203957897009e-002,-0.2262554474196144,1.347311069064249,0,0,0
0076_tilt_020_pan_040_f70.jpg,0.6604346472737777,-0.7866172796807086,3.694050896365069,-40.02619639810819,20.01448484220285,-4.120436964856684e-003,69.91591842185127,-3.933454645693081e-005,4.21002829748343e-004,1.26203957897009e-002,-0.2262554474196144,1.347311069064249,0,0,0
0077_tilt_020_pan_050_f70.jpg,0.7869442600827816,-0.6608113310928398,3.694764885186678,-50.02149505153255,20.01674950137636,-1.486677973217425e-002,69.91591842185127,-3.933454645693081e-005,4.21002829748343e-004,1.26203957897009e-002,-0.2262554474196144,1.347311069064249,0,0,0
0078_tilt_020_pan_060_f70.jpg,0.8890219059550145,-0.513605793399829,3.694343560022115,-60.01723158741638,20.00331252308278,-1.200877562488545e-002,69.91591842185127,-3.933454645693081e-005,4.21002829748343e-004,1.26203957897009e-002,-0.2262554474196144,1.347311069064249,0,0,0
0079_tilt_020_pan_070_f70.jpg,0.9643412857929263,-0.3506594770545908,3.694086475834772,-70.03466004356126,19.99273397110903,-5.893002442872599e-003,69.91591842185127,-3.933454645693081e-005,4.21002829748343e-004,1.26203957897009e-002,-0.2262554474196144,1.347311069064249,0,0,0
0080_tilt_020_pan_080_f70.jpg,1.012866849406626,-0.1758095108071305,3.694521286529531,-80.06752465816439,20.03198600924438,4.058486920099152e-002,69.91591842185127,-3.933454645693081e-005,4.21002829748343e-004,1.26203957897009e-002,-0.2262554474196144,1.347311069064249,0,0,0
0081_tilt_020_pan_090_f70.jpg,1.027347854513595,-6.356947024711939e-004,3.694464645783607,-90.03085909344136,20.01531126583355,-2.688960246817667e-002,69.91591842185127,-3.933454645693081e-005,4.21002829748343e-004,1.26203957897009e-002,-0.2262554474196144,1.347311069064249,0,0,0
0082_tilt_020_pan_100_f70.jpg,1.012313689490458,0.1781763517055223,3.695203433326204,-100.0623397920281,20.02191881366726,-2.909204150545516e-002,69.91591842185127,-3.933454645693081e-005,4.21002829748343e-004,1.26203957897009e-002,-0.2262554474196144,1.347311069064249,0,0,0
0083_tilt_020_pan_110_f70.jpg,0.9651510707986544,0.3518560740471599,3.695572383558355,-110.0659972555314,20.00808844499767,-1.160491067216281e-002,69.91591842185127,-3.933454645693081e-005,4.21002829748343e-004,1.26203957897009e-002,-0.2262554474196144,1.347311069064249,0,0,0
0084_tilt_020_pan_120_f70.jpg,0.8889761944857837,0.5133762447482509,3.694886431736552,-120.0291802588851,19.99919000393982,-1.004036304757717e-002,69.91591842185127,-3.933454645693081e-005,4.21002829748343e-004,1.26203957897009e-002,-0.2262554474196144,1.347311069064249,0,0,0
0085_tilt_020_pan_130_f70.jpg,0.7859252209303333,0.6601631571852564,3.694320176973272,-130.0232924885317,19.99704546498913,4.561694815305203e-003,69.91591842185127,-3.933454645693081e-005,4.21002829748343e-004,1.26203957897009e-002,-0.2262554474196144,1.347311069064249,0,0,0
0086_tilt_020_pan_140_f70.jpg,0.6587125885682326,0.7850611625172736,3.693662080801337,-140.0575891797575,19.9719684586035,-1.973828951953667e-002,69.91591842185127,-3.933454645693081e-005,4.21002829748343e-004,1.26203957897009e-002,-0.2262554474196144,1.347311069064249,0,0,0
0087_tilt_020_pan_150_f70.jpg,0.5115751187906259,0.8876443262155511,3.693345842624602,-150.0865767575651,19.97032782175993,-1.299799717960627e-002,69.91591842185127,-3.933454645693081e-005,4.21002829748343e-004,1.26203957897009e-002,-0.2262554474196144,1.347311069064249,0,0,0
0088_tilt_020_pan_160_f70.jpg,0.3501677203635387,0.9627692248700985,3.692437693569771,-160.0524083533313,19.97736296383702,-1.026130124876719e-002,69.91591842185127,-3.933454645693081e-005,4.21002829748343e-004,1.26203957897009e-002,-0.2262554474196144,1.347311069064249,0,0,0
0089_tilt_020_pan_170_f70.jpg,0.1776436680293695,1.009658483100613,3.693676016491465,-170.0403377976027,19.98267762207123,-4.841423432470004e-003,69.91591842185127,-3.933454645693081e-005,4.21002829748343e-004,1.26203957897009e-002,-0.2262554474196144,1.347311069064249,0,0,0
0090_tilt_020_pan_180_f70.jpg,-7.2821020467933e-005,1.026186361706341,3.694241932939512,179.991043989315,19.9971485997687,7.806673422487922e-004,69.91591842185127,-3.933454645693081e-005,4.21002829748343e-004,1.26203957897009e-002,-0.2262554474196144,1.347311069064249,0,0,0
0091_tilt_020_pan_190_f70.jpg,-0.1777937447429879,1.01061015532896,3.694936295824376,169.9966800539898,19.98948095948231,-7.488007675388108e-003,69.91591842185127,-3.933454645693081e-005,4.21002829748343e-004,1.26203957897009e-002,-0.2262554474196144,1.347311069064249,0,0,0
0092_tilt_020_pan_200_f70.jpg,-0.3500727281354056,0.9639654297612371,3.694462972583562,160.0200242128683,19.98465593145948,-6.705994334957869e-003,69.91591842185127,-3.933454645693081e-005,4.21002829748343e-004,1.26203957897009e-002,-0.2262554474196144,1.347311069064249,0,0,0
0093_tilt_020_pan_210_f70.jpg,-0.5117265893463886,0.8881919082607596,3.694608945934099,150.056525369289,19.9732154395505,-1.669181843970955e-003,69.91591842185127,-3.933454645693081e-005,4.21002829748343e-004,1.26203957897009e-002,-0.2262554474196144,1.347311069064249,0,0,0
0094_tilt_020_pan_220_f70.jpg,-0.6597777652449197,0.7858774194574998,3.695972255403595,140.0510038321653,19.98278385256466,2.417328371980944e-002,69.91591842185127,-3.933454645693081e-005,4.21002829748343e-004,1.26203957897009e-002,-0.2262554474196144,1.347311069064249,0,0,0
0095_tilt_020_pan_230_f70.jpg,-0.7854137386950769,0.6601446766488666,3.695009981482096,130.0553026619416,19.98887886109347,1.47763571974655e-003,69.91591842185127,-3.933454645693081e-005,4.21002829748343e-004,1.26203957897009e-002,-0.2262554474196144,1.347311069064249,0,0,0
0096_tilt_020_pan_240_f70.jpg,-0.8887566594216083,0.5126349004279689,3.693539250142962,119.9447229182352,19.99418105070037,-1.30948829035607e-002,69.91591842185127,-3.933454645693081e-005,4.21002829748343e-004,1.26203957897009e-002,-0.2262554474196144,1.347311069064249,0,0,0
0097_tilt_020_pan_250_f70.jpg,-0.9645122035061526,0.3503731235662154,3.694439661430644,109.9898805771112,19.99535637083854,1.1837050690721e-002,69.91591842185127,-3.933454645693081e-005,4.21002829748343e-004,1.26203957897009e-002,-0.2262554474196144,1.347311069064249,0,0,0
0098_tilt_020_pan_260_f70.jpg,-1.010619388422204,0.1783305342298572,3.693168466327217,100.027014995583,20.00415393682571,5.351048296377198e-003,69.91591842185127,-3.933454645693081e-005,4.21002829748343e-004,1.26203957897009e-002,-0.2262554474196144,1.347311069064249,0,0,0
0099_tilt_020_pan_270_f70.jpg,-1.026962314234231,5.847935806072661e-004,3.694094634006404,90.01897982340162,20.01347852193735,-7.310117074579145e-003,69.91591842185127,-3.933454645693081e-005,4.21002829748343e-004,1.26203957897009e-002,-0.2262554474196144,1.347311069064249,0,0,0
0100_tilt_020_pan_280_f70.jpg,-1.010198656609283,-0.1786682568089272,3.694268818005689,79.97458083822711,19.98716465450027,6.514199022587266e-003,69.91591842185127,-3.933454645693081e-005,4.21002829748343e-004,1.26203957897009e-002,-0.2262554474196144,1.347311069064249,0,0,0
0101_tilt_020_pan_290_f70.jpg,-0.9644750548709151,-0.3511565644811687,3.694131189681092,69.99921944804424,19.99995817867527,-9.650407563920578e-004,69.91591842185127,-3.933454645693081e-005,4.21002829748343e-004,1.26203957897009e-002,-0.2262554474196144,1.347311069064249,0,0,0
0102_tilt_020_pan_300_f70.jpg,-0.8882494293244463,-0.5136735245574298,3.69419029224444,59.99088904942018,19.9936819913734,1.469939857493037e-002,69.91591842185127,-3.933454645693081e-005,4.21002829748343e-004,1.26203957897009e-002,-0.2262554474196144,1.347311069064249,0,0,0
0103_tilt_020_pan_310_f70.jpg,-0.7863262091124404,-0.6607885626725848,3.693356987508943,49.98542157430344,20.02123378369964,1.15058757145468e-002,69.91591842185127,-3.933454645693081e-005,4.21002829748343e-004,1.26203957897009e-002,-0.2262554474196144,1.347311069064249,0,0,0
0104_tilt_020_pan_320_f70.jpg,-0.6594696461356977,-0.7861124832996604,3.692531646344545,39.98301088574303,20.00412378308307,-2.852053515634478e-003,69.91591842185127,-3.933454645693081e-005,4.21002829748343e-004,1.26203957897009e-002,-0.2262554474196144,1.347311069064249,0,0,0
0105_tilt_020_pan_330_f70.jpg,-0.5125458181513256,-0.8887114915856369,3.692912121910238,29.96946921671042,19.99975956105605,-1.430169464414628e-003,69.91591842185127,-3.933454645693081e-005,4.21002829748343e-004,1.26203957897009e-002,-0.2262554474196144,1.347311069064249,0,0,0
0106_tilt_020_pan_340_f70.jpg,-0.350919926077872,-0.9642816110822222,3.693443536778982,19.9793995752012,20.00018074130634,-8.165328490031733e-003,69.91591842185127,-3.933454645693081e-005,4.21002829748343e-004,1.26203957897009e-002,-0.2262554474196144,1.347311069064249,0,0,0
0107_tilt_020_pan_350_f70.jpg,-0.1785708947933105,-1.011060415828555,3.694143319656752,10.00982502321668,20.0056515445002,-5.440493094988981e-003,69.91591842185127,-3.933454645693081e-005,4.21002829748343e-004,1.26203957897009e-002,-0.2262554474196144,1.347311069064249,0,0,0
0108_tilt_030_pan_000_f70.jpg,1.688218827287807e-004,-1.500627333462818,3.473471037628443,4.430658440342485e-003,30.00238934592139,6.167807346772636e-003,69.91591842185127,-3.933454645693081e-005,4.21002829748343e-004,1.26203957897009e-002,-0.2262554474196144,1.347311069064249,0,0,0
0109_tilt_030_pan_010_f70.jpg,0.2609567760221669,-1.47738319838765,3.473118009771514,-10.00606772516747,29.99998099356765,5.136109330182615e-003,69.91591842185127,-3.933454645693081e-005,4.21002829748343e-004,1.26203957897009e-002,-0.2262554474196144,1.347311069064249,0,0,0
0110_tilt_030_pan_020_f70.jpg,0.5131930723617288,-1.408599880998097,3.472553890032202,-19.99833363233797,29.9877626962273,9.477497333641725e-003,69.91591842185127,-3.933454645693081e-005,4.21002829748343e-004,1.26203957897009e-002,-0.2262554474196144,1.347311069064249,0,0,0
0111_tilt_030_pan_030_f70.jpg,0.7508524786540159,-1.299263508583256,3.473446872885109,-29.99906308940517,30.00281842091172,1.326545710473084e-002,69.91591842185127,-3.933454645693081e-005,4.21002829748343e-004,1.26203957897009e-002,-0.2262554474196144,1.347311069064249,0,0,0
0112_tilt_030_pan_040_f70.jpg,0.9648244408948694,-1.149298770107587,3.472856507177577,-40.0002056618082,30.00715582174794,7.72913818946678e-003,69.91591842185127,-3.933454645693081e-005,4.21002829748343e-004,1.26203957897009e-002,-0.2262554474196144,1.347311069064249,0,0,0
0113_tilt_030_pan_050_f70.jpg,1.150307649099651,-0.9640867734840037,3.472574592967005,-49.99328829747297,30.01530160424893,2.272319054848972e-002,69.91591842185127,-3.933454645693081e-005,4.21002829748343e-004,1.26203957897009e-002,-0.2262554474196144,1.347311069064249,0,0,0
0114_tilt_030_pan_060_f70.jpg,1.29955109739947,-0.7503673995879168,3.472401044805074,-59.98537878510813,30.01502770893808,6.274493010990459e-003,69.91591842185127,-3.933454645693081e-005,4.21002829748343e-004,1.26203957897009e-002,-0.2262554474196144,1.347311069064249,0,0,0
0115_tilt_030_pan_070_f70.jpg,1.409978121060732,-0.5136131085871202,3.472952293652342,-70.01344001599625,30.00596226845087,-1.444438007319172e-002,69.91591842185127,-3.933454645693081e-005,4.21002829748343e-004,1.26203957897009e-002,-0.2262554474196144,1.347311069064249,0,0,0
0116_tilt_030_pan_080_f70.jpg,1.479119182385195,-0.260613164728418,3.472829851267152,-80.02395610014435,30.03167332214585,-7.667426473568818e-003,69.91591842185127,-3.933454645693081e-005,4.21002829748343e-004,1.26203957897009e-002,-0.2262554474196144,1.347311069064249,0,0,0
0117_tilt_030_pan_090_f70.jpg,1.500699504037438,5.275667149067922e-005,3.472523101470197,-90.0225058918253,30.01409294526353,-1.123074925622094e-002,69.91591842185127,-3.933454645693081e-005,4.21002829748343e-004,1.26203957897009e-002,-0.2262554474196144,1.347311069064249,0,0,0
0118_tilt_030_pan_100_f70.jpg,1.477599315973223,0.2603106437252876,3.473144611737089,-100.0133929889921,30.00056499446467,-1.16709264318018e-002,69.91591842185127,-3.933454645693081e-005,4.21002829748343e-004,1.26203957897009e-002,-0.2262554474196144,1.347311069064249,0,0,0
0119_tilt_030_pan_110_f70.jpg,1.410762400975578,0.513061403170741,3.473928458764427,-110.0077051915828,30.006499389961,-1.43015715064e-002,69.91591842185127,-3.933454645693081e-005,4.21002829748343e-004,1.26203957897009e-002,-0.2262554474196144,1.347311069064249,0,0,0
0120_tilt_030_pan_120_f70.jpg,1.299413772284904,0.74936790203216,3.4731089277493,-119.9960162423595,29.9935089003313,-1.147586461294655e-002,69.91591842185127,-3.933454645693081e-005,4.21002829748343e-004,1.26203957897009e-002,-0.2262554474196144,1.347311069064249,0,0,0
0121_tilt_030_pan_130_f70.jpg,1.147280269913859,0.9633719243296041,3.471525017904746,-130.0371435026515,29.97616563288252,-2.620961452765583e-003,69.91591842185127,-3.933454645693081e-005,4.21002829748343e-004,1.26203957897009e-002,-0.2262554474196144,1.347311069064249,0,0,0
0122_tilt_030_pan_140_f70.jpg,0.962057721400694,1.151292226979151,3.473824933384767,-140.1289717610915,29.99577744443754,-3.390484173616249e-003,69.91591842185127,-3.933454645693081e-005,4.21002829748343e-004,1.26203957897009e-002,-0.2262554474196144,1.347311069064249,0,0,0
0123_tilt_030_pan_150_f70.jpg,0.7495476227064485,1.300053568211362,3.473722376763697,-150.0289487710812,30.00435022643658,8.892514296362501e-004,69.91591842185127,-3.933454645693081e-005,4.21002829748343e-004,1.26203957897009e-002,-0.2262554474196144,1.347311069064249,0,0,0
0124_tilt_030_pan_160_f70.jpg,0.5121948880386491,1.409492011708647,3.472268925278609,-160.0418455453089,30.00137922938639,-3.962559661311248e-003,69.91591842185127,-3.933454645693081e-005,4.21002829748343e-004,1.26203957897009e-002,-0.2262554474196144,1.347311069064249,0,0,0
0125_tilt_030_pan_170_f70.jpg,0.2610379596728835,1.478805491148595,3.473551291119368,-169.9666249702565,30.02506884016138,1.689119786773447e-002,69.91591842185127,-3.933454645693081e-005,4.21002829748343e-004,1.26203957897009e-002,-0.2262554474196144,1.347311069064249,0,0,0
0126_tilt_030_pan_180_f70.jpg,5.017214190140731e-007,1.499999914308618,3.473783200110271,179.9928218010714,29.99092617069278,-9.13063405909342e-004,69.91591842185127,-3.933454645693081e-005,4.21002829748343e-004,1.26203957897009e-002,-0.2262554474196144,1.347311069064249,0,0,0
0127_tilt_030_pan_190_f70.jpg,-0.2603703256941263,1.477591700229212,3.472980206712631,169.9955693584768,30.00411399602339,-1.987517875976697e-003,69.91591842185127,-3.933454645693081e-005,4.21002829748343e-004,1.26203957897009e-002,-0.2262554474196144,1.347311069064249,0,0,0
0128_tilt_030_pan_200_f70.jpg,-0.5144000383977527,1.410174310367852,3.473713310089818,159.9802403431142,30.00803285674866,1.353678451632652e-002,69.91591842185127,-3.933454645693081e-005,4.21002829748343e-004,1.26203957897009e-002,-0.2262554474196144,1.347311069064249,0,0,0
0129_tilt_030_pan_210_f70.jpg,-0.7499504734850539,1.298446496083458,3.472917923884935,150.002494862914,29.98863436292823,6.727968065519285e-003,69.91591842185127,-3.933454645693081e-005,4.21002829748343e-004,1.26203957897009e-002,-0.2262554474196144,1.347311069064249,0,0,0
0130_tilt_030_pan_220_f70.jpg,-0.9646348778065365,1.149284454886152,3.473951652603613,139.9880937861947,29.99307386239558,1.978354796830799e-003,69.91591842185127,-3.933454645693081e-005,4.21002829748343e-004,1.26203957897009e-002,-0.2262554474196144,1.347311069064249,0,0,0
0131_tilt_030_pan_230_f70.jpg,-1.150259986807299,0.9639678712875936,3.47404619094994,129.9702397263683,29.99995405647975,6.041691257002303e-003,69.91591842185127,-3.933454645693081e-005,4.21002829748343e-004,1.26203957897009e-002,-0.2262554474196144,1.347311069064249,0,0,0
0132_tilt_030_pan_240_f70.jpg,-1.298078018721636,0.749812348171419,3.473337730333233,119.9989643039122,29.97767415631064,-6.119352802090483e-003,69.91591842185127,-3.933454645693081e-005,4.21002829748343e-004,1.26203957897009e-002,-0.2262554474196144,1.347311069064249,0,0,0
0133_tilt_030_pan_250_f70.jpg,-1.411109050795722,0.5142434251107922,3.473335822466047,109.9932361308289,30.0294655037285,-1.622177756795593e-002,69.91591842185127,-3.933454645693081e-005,4.21002829748343e-004,1.26203957897009e-002,-0.2262554474196144,1.347311069064249,0,0,0
0134_tilt_030_pan_260_f70.jpg,-1.47853315499457,0.2620538906753889,3.473474728423558,100.0782447057446,30.02443340328102,1.097418028756943e-002,69.91591842185127,-3.933454645693081e-005,4.21002829748343e-004,1.26203957897009e-002,-0.2262554474196144,1.347311069064249,0,0,0
0135_tilt_030_pan_270_f70.jpg,-1.500341933703746,1.179396707613903e-003,3.473218990191601,90.04771000246551,30.00266530512036,4.452522797797254e-004,69.91591842185127,-3.933454645693081e-005,4.21002829748343e-004,1.26203957897009e-002,-0.2262554474196144,1.347311069064249,0,0,0
0136_tilt_030_pan_280_f70.jpg,-1.477740632807724,-0.2607184316516316,3.472274176153089,80.00000723999015,30.01631158863998,4.177276454097532e-003,69.91591842185127,-3.933454645693081e-005,4.21002829748343e-004,1.26203957897009e-002,-0.2262554474196144,1.347311069064249,0,0,0
0137_tilt_030_pan_290_f70.jpg,-1.40932919699633,-0.5135763592777985,3.472314601127952,69.99248274956977,30.00562441074844,1.06824337853615e-002,69.91591842185127,-3.933454645693081e-005,4.21002829748343e-004,1.26203957897009e-002,-0.2262554474196144,1.347311069064249,0,0,0
0138_tilt_030_pan_300_f70.jpg,-1.299418686921271,-0.7502442946115674,3.472237721776807,60.02027401738918,30.01442595264953,9.887407898456992e-003,69.91591842185127,-3.933454645693081e-005,4.21002829748343e-004,1.26203957897009e-002,-0.2262554474196144,1.347311069064249,0,0,0
0139_tilt_030_pan_310_f70.jpg,-1.149241580555298,-0.9643142544324147,3.472706831682942,49.9906069060655,30.00520987028919,-4.406403225202927e-003,69.91591842185127,-3.933454645693081e-005,4.21002829748343e-004,1.26203957897009e-002,-0.2262554474196144,1.347311069064249,0,0,0
0140_tilt_030_pan_320_f70.jpg,-0.9633290105563448,-1.150232925472385,3.4731042596671,39.94355010314806,30.00607821967532,6.56638051654538e-004,69.91591842185127,-3.933454645693081e-005,4.21002829748343e-004,1.26203957897009e-002,-0.2262554474196144,1.347311069064249,0,0,0
0141_tilt_030_pan_330_f70.jpg,-0.7501088314041524,-1.299428686358675,3.473204933952261,29.97738219582607,30.0023748285606,-1.298408783175365e-002,69.91591842185127,-3.933454645693081e-005,4.21002829748343e-004,1.26203957897009e-002,-0.2262554474196144,1.347311069064249,0,0,0
0142_tilt_030_pan_340_f70.jpg,-0.5134925870668633,-1.410486531627219,3.47292618473857,19.98395759234569,30.01659640983001,-1.408832542151734e-002,69.91591842185127,-3.933454645693081e-005,4.21002829748343e-004,1.26203957897009e-002,-0.2262554474196144,1.347311069064249,0,0,0
0143_tilt_030_pan_350_f70.jpg,-0.2607824182931447,-1.477860184197582,3.473280665017915,9.989438426046133,30.00495717095164,-1.176967207431776e-002,69.91591842185127,-3.933454645693081e-005,4.21002829748343e-004,1.26203957897009e-002,-0.2262554474196144,1.347311069064249,0,0,0
0144_tilt_040_pan_000_f70.jpg,-8.181275237964725e-007,-1.927845135645962,3.173190957883301,3.776159418257107e-003,39.98933027141175,6.451273748393244e-004,69.91591842185127,-3.933454645693081e-005,4.21002829748343e-004,1.26203957897009e-002,-0.2262554474196144,1.347311069064249,0,0,0
0145_tilt_040_pan_010_f70.jpg,0.3353703421034725,-1.899209706568649,3.173570755354612,-10.00567530733626,39.99403215582454,3.844343556794115e-003,69.91591842185127,-3.933454645693081e-005,4.21002829748343e-004,1.26203957897009e-002,-0.2262554474196144,1.347311069064249,0,0,0
0146_tilt_040_pan_020_f70.jpg,0.6591157094694021,-1.811249172032327,3.173136876904574,-19.98114936242735,39.98203083440875,8.653735129148686e-003,69.91591842185127,-3.933454645693081e-005,4.21002829748343e-004,1.26203957897009e-002,-0.2262554474196144,1.347311069064249,0,0,0
0147_tilt_040_pan_030_f70.jpg,0.9640451391300561,-1.66889505736738,3.173133541012489,-29.97847370181555,39.98042152193317,2.312538792812205e-002,69.91591842185127,-3.933454645693081e-005,4.21002829748343e-004,1.26203957897009e-002,-0.2262554474196144,1.347311069064249,0,0,0
0148_tilt_040_pan_040_f70.jpg,1.23978486979958,-1.476078646571051,3.172920695058825,-39.96933441288338,39.98803912218953,3.969308903456116e-002,69.91591842185127,-3.933454645693081e-005,4.21002829748343e-004,1.26203957897009e-002,-0.2262554474196144,1.347311069064249,0,0,0
0149_tilt_040_pan_050_f70.jpg,1.478220070480948,-1.23948389935767,3.173124026228067,-49.9950252730541,40.00927285736677,1.853494122076948e-002,69.91591842185127,-3.933454645693081e-005,4.21002829748343e-004,1.26203957897009e-002,-0.2262554474196144,1.347311069064249,0,0,0
0150_tilt_040_pan_060_f70.jpg,1.671544219819885,-0.964326817351182,3.173235253253642,-59.99413405931558,40.019664663525,1.859856679744554e-002,69.91591842185127,-3.933454645693081e-005,4.21002829748343e-004,1.26203957897009e-002,-0.2262554474196144,1.347311069064249,0,0,0
0151_tilt_040_pan_070_f70.jpg,1.812773740696887,-0.6603522380634798,3.17272539138967,-69.96860064526071,40.01574773954383,1.104662565613007e-002,69.91591842185127,-3.933454645693081e-005,4.21002829748343e-004,1.26203957897009e-002,-0.2262554474196144,1.347311069064249,0,0,0
0152_tilt_040_pan_080_f70.jpg,1.899830244765494,-0.3355956116610805,3.172845320757955,-79.99002200116398,40.01515998130448,-4.104820256639359e-003,69.91591842185127,-3.933454645693081e-005,4.21002829748343e-004,1.26203957897009e-002,-0.2262554474196144,1.347311069064249,0,0,0
0153_tilt_040_pan_090_f70.jpg,1.929608478829151,-9.125200981117096e-004,3.173148644062665,-89.98396541693235,40.01673164137339,-8.95784964027792e-003,69.91591842185127,-3.933454645693081e-005,4.21002829748343e-004,1.26203957897009e-002,-0.2262554474196144,1.347311069064249,0,0,0
0154_tilt_040_pan_100_f70.jpg,1.900569325266328,0.3349590739677463,3.173407023931104,-99.99924632639275,40.01701572239129,-3.787670279859229e-003,69.91591842185127,-3.933454645693081e-005,4.21002829748343e-004,1.26203957897009e-002,-0.2262554474196144,1.347311069064249,0,0,0
0155_tilt_040_pan_110_f70.jpg,1.813479846058331,0.6608425419982958,3.172957810251807,-110.0240641845446,40.02864997490042,6.397159447811662e-004,69.91591842185127,-3.933454645693081e-005,4.21002829748343e-004,1.26203957897009e-002,-0.2262554474196144,1.347311069064249,0,0,0
0156_tilt_040_pan_120_f70.jpg,1.670433641069748,0.9639006772809352,3.172986759786261,-119.9913853990386,40.00459980894581,-2.462547411234189e-003,69.91591842185127,-3.933454645693081e-005,4.21002829748343e-004,1.26203957897009e-002,-0.2262554474196144,1.347311069064249,0,0,0
0157_tilt_040_pan_130_f70.jpg,1.476713349266377,1.239274976645704,3.172097162251074,-130.0098269782537,40.00209394775001,-2.601655965840672e-003,69.91591842185127,-3.933454645693081e-005,4.21002829748343e-004,1.26203957897009e-002,-0.2262554474196144,1.347311069064249,0,0,0
0158_tilt_040_pan_140_f70.jpg,1.23951999378567,1.477491768028801,3.17325571485567,-139.9896463503806,39.99999531534834,1.041690580097034e-002,69.91591842185127,-3.933454645693081e-005,4.21002829748343e-004,1.26203957897009e-002,-0.2262554474196144,1.347311069064249,0,0,0
0159_tilt_040_pan_150_f70.jpg,0.9636968818151442,1.670021914053774,3.17301968515531,-150.0129381207654,39.9956034487747,1.183471014275695e-003,69.91591842185127,-3.933454645693081e-005,4.21002829748343e-004,1.26203957897009e-002,-0.2262554474196144,1.347311069064249,0,0,0
0160_tilt_040_pan_160_f70.jpg,0.6590892969344675,1.81234382428579,3.17273258293294,-160.0009075562118,40.00477337205664,1.055062186735363e-002,69.91591842185127,-3.933454645693081e-005,4.21002829748343e-004,1.26203957897009e-002,-0.2262554474196144,1.347311069064249,0,0,0
0161_tilt_040_pan_170_f70.jpg,0.3345675423240629,1.899326372426688,3.172212287064293,-170.0088408443526,40.01506805778646,2.020058942753358e-003,69.91591842185127,-3.933454645693081e-005,4.21002829748343e-004,1.26203957897009e-002,-0.2262554474196144,1.347311069064249,0,0,0
0162_tilt_040_pan_180_f70.jpg,-5.070666168565688e-004,1.929671159779337,3.172810241710065,-179.9933211926383,40.02312325568273,1.445786665047604e-002,69.91591842185127,-3.933454645693081e-005,4.21002829748343e-004,1.26203957897009e-002,-0.2262554474196144,1.347311069064249,0,0,0
0163_tilt_040_pan_190_f70.jpg,-0.3350887923286326,1.901711394870305,3.17275229960885,170.0096276067319,40.04365840726741,1.740605319785492e-003,69.91591842185127,-3.933454645693081e-005,4.21002829748343e-004,1.26203957897009e-002,-0.2262554474196144,1.347311069064249,0,0,0
0164_tilt_040_pan_200_f70.jpg,-0.6602858813906505,1.813169563428988,3.172713363371661,159.9830000628892,40.02453681454362,-3.653659357746974e-003,69.91591842185127,-3.933454645693081e-005,4.21002829748343e-004,1.26203957897009e-002,-0.2262554474196144,1.347311069064249,0,0,0
0165_tilt_040_pan_210_f70.jpg,-0.9641797142690645,1.670016899466836,3.172910281430465,149.984507068551,40.0043009331385,-7.444847839678905e-003,69.91591842185127,-3.933454645693081e-005,4.21002829748343e-004,1.26203957897009e-002,-0.2262554474196144,1.347311069064249,0,0,0
0166_tilt_040_pan_220_f70.jpg,-1.239944339732293,1.47644779172026,3.17269574857251,139.9619265609488,39.99877061836896,-5.56587981897251e-003,69.91591842185127,-3.933454645693081e-005,4.21002829748343e-004,1.26203957897009e-002,-0.2262554474196144,1.347311069064249,0,0,0
0167_tilt_040_pan_230_f70.jpg,-1.477760633795553,1.238105442862733,3.172674496378228,129.9661974224722,39.99697352740031,1.000935170141435e-002,69.91591842185127,-3.933454645693081e-005,4.21002829748343e-004,1.26203957897009e-002,-0.2262554474196144,1.347311069064249,0,0,0
0168_tilt_040_pan_240_f70.jpg,-1.669678196320646,0.9634227439118719,3.172777372173235,119.9742978408351,39.99107598111534,-7.281549518536626e-003,69.91591842185127,-3.933454645693081e-005,4.21002829748343e-004,1.26203957897009e-002,-0.2262554474196144,1.347311069064249,0,0,0
0169_tilt_040_pan_250_f70.jpg,-1.812068372696156,0.6594996992478536,3.172814150322628,109.9829913167887,40.00410094165386,-9.663306297302922e-003,69.91591842185127,-3.933454645693081e-005,4.21002829748343e-004,1.26203957897009e-002,-0.2262554474196144,1.347311069064249,0,0,0
0170_tilt_040_pan_260_f70.jpg,-1.898604488966687,0.3350090981828843,3.172722780086735,100.0140104100671,40.00006387472582,4.611740583988624e-003,69.91591842185127,-3.933454645693081e-005,4.21002829748343e-004,1.26203957897009e-002,-0.2262554474196144,1.347311069064249,0,0,0
0171_tilt_040_pan_270_f70.jpg,-1.928960950222548,7.76554935428904e-004,3.173000508873479,90.02866396843817,40.01313102260264,3.71615399108804e-003,69.91591842185127,-3.933454645693081e-005,4.21002829748343e-004,1.26203957897009e-002,-0.2262554474196144,1.347311069064249,0,0,0
0172_tilt_040_pan_280_f70.jpg,-1.898939638683188,-0.3342601541818169,3.172807042789387,80.02230103980432,40.00046893061392,3.430644463017793e-003,69.91591842185127,-3.933454645693081e-005,4.21002829748343e-004,1.26203957897009e-002,-0.2262554474196144,1.347311069064249,0,0,0
0173_tilt_040_pan_290_f70.jpg,-1.812462973827633,-0.6602756618967849,3.173041668450617,69.97676013251527,40.01139533868863,-5.008523744213822e-003,69.91591842185127,-3.933454645693081e-005,4.21002829748343e-004,1.26203957897009e-002,-0.2262554474196144,1.347311069064249,0,0,0
0174_tilt_040_pan_300_f70.jpg,-1.670246410396033,-0.9658302038226877,3.17309241254874,59.95992970078203,40.01765142589016,7.86195165193761e-004,69.91591842185127,-3.933454645693081e-005,4.21002829748343e-004,1.26203957897009e-002,-0.2262554474196144,1.347311069064249,0,0,0
0175_tilt_040_pan_310_f70.jpg,-1.477234940998724,-1.240092807290227,3.172658805557131,49.97693983428483,40.01301592217425,-9.145335895193981e-003,69.91591842185127,-3.933454645693081e-005,4.21002829748343e-004,1.26203957897009e-002,-0.2262554474196144,1.347311069064249,0,0,0
0176_tilt_040_pan_320_f70.jpg,-1.239628523934741,-1.477090743329502,3.172990179479024,40.00114427880983,40.00091744360841,-3.168254704141954e-003,69.91591842185127,-3.933454645693081e-005,4.21002829748343e-004,1.26203957897009e-002,-0.2262554474196144,1.347311069064249,0,0,0
0177_tilt_040_pan_330_f70.jpg,-0.9642106819656227,-1.669981140440423,3.172753858478849,30.00865541756624,40.00538253087648,3.641994754194322e-003,69.91591842185127,-3.933454645693081e-005,4.21002829748343e-004,1.26203957897009e-002,-0.2262554474196144,1.347311069064249,0,0,0
0178_tilt_040_pan_340_f70.jpg,-0.6601784810205957,-1.813132864398131,3.173374016416966,19.99967635868874,40.01191408207719,-7.524599797313944e-003,69.91591842185127,-3.933454645693081e-005,4.21002829748343e-004,1.26203957897009e-002,-0.2262554474196144,1.347311069064249,0,0,0
0179_tilt_040_pan_350_f70.jpg,-0.3347462718846997,-1.899207196941839,3.173007149404324,9.996829920009635,40.00130852171873,-3.332871265003826e-004,69.91591842185127,-3.933454645693081e-005,4.21002829748343e-004,1.26203957897009e-002,-0.2262554474196144,1.347311069064249,0,0,0
0180_tilt_050_pan_000_f70.jpg,-7.314831671874463e-005,-2.297767188033111,2.803794471743036,1.43448417695151e-002,49.9887028219539,8.86537519932401e-003,69.91591842185127,-3.933454645693081e-005,4.21002829748343e-004,1.26203957897009e-002,-0.2262554474196144,1.347311069064249,0,0,0
0181_tilt_050_pan_010_f70.jpg,0.4002469002309614,-2.261631258327354,2.80373457672097,-10.0163408484019,49.97512241210547,1.474608906660293e-002,69.91591842185127,-3.933454645693081e-005,4.21002829748343e-004,1.26203957897009e-002,-0.2262554474196144,1.347311069064249,0,0,0
0182_tilt_050_pan_020_f70.jpg,0.7855337625133318,-2.158543194338854,2.803910288093357,-19.97651484073118,49.97673448812876,1.528398407328121e-002,69.91591842185127,-3.933454645693081e-005,4.21002829748343e-004,1.26203957897009e-002,-0.2262554474196144,1.347311069064249,0,0,0
0183_tilt_050_pan_030_f70.jpg,1.148738067433002,-1.989616213127327,2.803757420374348,-29.97188169143488,49.98364869802988,2.178874627575918e-002,69.91591842185127,-3.933454645693081e-005,4.21002829748343e-004,1.26203957897009e-002,-0.2262554474196144,1.347311069064249,0,0,0
0184_tilt_050_pan_040_f70.jpg,1.478409425861528,-1.759932940400011,2.803649633004906,-39.9965775441503,49.99854749805776,2.774299683218842e-002,69.91591842185127,-3.933454645693081e-005,4.21002829748343e-004,1.26203957897009e-002,-0.2262554474196144,1.347311069064249,0,0,0
0185_tilt_050_pan_050_f70.jpg,1.761212402084602,-1.47667254549959,2.803386587172721,-49.98906144572592,50.000567801249,2.728692875924644e-002,69.91591842185127,-3.933454645693081e-005,4.21002829748343e-004,1.26203957897009e-002,-0.2262554474196144,1.347311069064249,0,0,0
0186_tilt_050_pan_060_f70.jpg,1.991367617032745,-1.14995359369042,2.803235438296986,-59.97217864440436,50.01852517255334,1.786340277653189e-002,69.91591842185127,-3.933454645693081e-005,4.21002829748343e-004,1.26203957897009e-002,-0.2262554474196144,1.347311069064249,0,0,0
0187_tilt_050_pan_070_f70.jpg,2.160591781272615,-0.7863501951509057,2.803152742435345,-69.97873772622667,50.01568591908822,1.76401493321642e-002,69.91591842185127,-3.933454645693081e-005,4.21002829748343e-004,1.26203957897009e-002,-0.2262554474196144,1.347311069064249,0,0,0
0188_tilt_050_pan_080_f70.jpg,2.264012606423484,-0.3997047163269791,2.803193448334354,-79.97334604071533,50.01349895830514,1.033263150399375e-002,69.91591842185127,-3.933454645693081e-005,4.21002829748343e-004,1.26203957897009e-002,-0.2262554474196144,1.347311069064249,0,0,0
0189_tilt_050_pan_090_f70.jpg,2.298903867110848,4.280220366142779e-004,2.803118773156857,-90.00519227615698,50.01306474583106,5.142615108458114e-003,69.91591842185127,-3.933454645693081e-005,4.21002829748343e-004,1.26203957897009e-002,-0.2262554474196144,1.347311069064249,0,0,0
0190_tilt_050_pan_100_f70.jpg,2.265081453515776,0.4005337705333227,2.803300396259325,-100.038101125461,50.02722279299446,-6.094061430698668e-003,69.91591842185127,-3.933454645693081e-005,4.21002829748343e-004,1.26203957897009e-002,-0.2262554474196144,1.347311069064249,0,0,0
0191_tilt_050_pan_110_f70.jpg,2.161494152813448,0.7862749382557503,2.802999421051626,-109.9864752858412,50.03176778405403,2.25563025682039e-003,69.91591842185127,-3.933454645693081e-005,4.21002829748343e-004,1.26203957897009e-002,-0.2262554474196144,1.347311069064249,0,0,0
0192_tilt_050_pan_120_f70.jpg,1.993062252821286,1.150377410474939,2.803210906514579,-119.9739166654395,50.04314617688322,1.355658519370607e-002,69.91591842185127,-3.933454645693081e-005,4.21002829748343e-004,1.26203957897009e-002,-0.2262554474196144,1.347311069064249,0,0,0
0193_tilt_050_pan_130_f70.jpg,1.761538474096334,1.47780054242815,2.802722014058848,-130.0015887038318,50.02377493350074,-5.122170943103712e-003,69.91591842185127,-3.933454645693081e-005,4.21002829748343e-004,1.26203957897009e-002,-0.2262554474196144,1.347311069064249,0,0,0
0194_tilt_050_pan_140_f70.jpg,1.477414402532577,1.760670960944368,2.802919170798192,-139.9855342834073,50.00914801687649,9.480312820273536e-003,69.91591842185127,-3.933454645693081e-005,4.21002829748343e-004,1.26203957897009e-002,-0.2262554474196144,1.347311069064249,0,0,0
0195_tilt_050_pan_150_f70.jpg,1.147935011457352,1.989427806733781,2.803515302497151,-150.0003944457247,49.98053510105299,1.049711788866217e-002,69.91591842185127,-3.933454645693081e-005,4.21002829748343e-004,1.26203957897009e-002,-0.2262554474196144,1.347311069064249,0,0,0
0196_tilt_050_pan_160_f70.jpg,0.7845373125511129,2.158276791665143,2.803426599083388,-160.0156865495243,49.9771193196345,6.019414752554353e-003,69.91591842185127,-3.933454645693081e-005,4.21002829748343e-004,1.26203957897009e-002,-0.2262554474196144,1.347311069064249,0,0,0
0197_tilt_050_pan_170_f70.jpg,0.3977730426448448,2.262112705672144,2.803693625719008,-170.0361800773854,49.97795725432869,-5.269330971467e-003,69.91591842185127,-3.933454645693081e-005,4.21002829748343e-004,1.26203957897009e-002,-0.2262554474196144,1.347311069064249,0,0,0
0198_tilt_050_pan_180_f70.jpg,-1.412396406015946e-003,2.298167971420177,2.803269217715558,179.9597506423773,50.00123299796427,-9.400619303120383e-004,69.91591842185127,-3.933454645693081e-005,4.21002829748343e-004,1.26203957897009e-002,-0.2262554474196144,1.347311069064249,0,0,0
0199_tilt_050_pan_190_f70.jpg,-0.3989316705288415,2.262235065186216,2.80341296122539,170.0136281539421,49.98816448562163,1.241819322534247e-002,69.91591842185127,-3.933454645693081e-005,4.21002829748343e-004,1.26203957897009e-002,-0.2262554474196144,1.347311069064249,0,0,0
0200_tilt_050_pan_200_f70.jpg,-0.787062117029328,2.156394089977506,2.80385236976861,159.9812428882497,49.960773425581,2.544292602833162e-002,69.91591842185127,-3.933454645693081e-005,4.21002829748343e-004,1.26203957897009e-002,-0.2262554474196144,1.347311069064249,0,0,0
0201_tilt_050_pan_210_f70.jpg,-1.149766062238716,1.989848878230978,2.803252029294357,149.9785196776303,50.0015954699726,2.719986912261002e-003,69.91591842185127,-3.933454645693081e-005,4.21002829748343e-004,1.26203957897009e-002,-0.2262554474196144,1.347311069064249,0,0,0
0202_tilt_050_pan_220_f70.jpg,-1.478085310145538,1.76031139423644,2.803107031488533,139.9844792260827,50.01000471360018,4.31062562350056e-003,69.91591842185127,-3.933454645693081e-005,4.21002829748343e-004,1.26203957897009e-002,-0.2262554474196144,1.347311069064249,0,0,0
0203_tilt_050_pan_230_f70.jpg,-1.760380554791444,1.47544335412513,2.802513243357387,129.9680005898038,49.99874183226618,2.679130663564311e-003,69.91591842185127,-3.933454645693081e-005,4.21002829748343e-004,1.26203957897009e-002,-0.2262554474196144,1.347311069064249,0,0,0
0204_tilt_050_pan_240_f70.jpg,-1.988721423613658,1.148375956907627,2.803321180449047,119.9992482299476,49.98183277433884,-3.551502758143046e-003,69.91591842185127,-3.933454645693081e-005,4.21002829748343e-004,1.26203957897009e-002,-0.2262554474196144,1.347311069064249,0,0,0
0205_tilt_050_pan_250_f70.jpg,-2.1607202073614,0.7866731522370243,2.803104366941996,109.9917835528741,50.02284182364164,-8.518997679612767e-003,69.91591842185127,-3.933454645693081e-005,4.21002829748343e-004,1.26203957897009e-002,-0.2262554474196144,1.347311069064249,0,0,0
0206_tilt_050_pan_260_f70.jpg,-2.262021250632558,0.3999247198798666,2.803227167444067,100.0309263855015,49.99192302469517,5.251187849557671e-003,69.91591842185127,-3.933454645693081e-005,4.21002829748343e-004,1.26203957897009e-002,-0.2262554474196144,1.347311069064249,0,0,0
0207_tilt_050_pan_270_f70.jpg,-2.298131517106599,6.759263196720819e-004,2.803220121673965,90.02898135190719,50.00381692184926,1.124887181978919e-002,69.91591842185127,-3.933454645693081e-005,4.21002829748343e-004,1.26203957897009e-002,-0.2262554474196144,1.347311069064249,0,0,0
0208_tilt_050_pan_280_f70.jpg,-2.263248681974689,-0.4000971892605003,2.802741596457843,79.96680064547988,50.01334150419165,-3.582611869613258e-003,69.91591842185127,-3.933454645693081e-005,4.21002829748343e-004,1.26203957897009e-002,-0.2262554474196144,1.347311069064249,0,0,0
0209_tilt_050_pan_290_f70.jpg,-2.159028559429581,-0.7857791950743127,2.803192267487358,69.98458425147142,49.99744227783198,-1.420384405254502e-002,69.91591842185127,-3.933454645693081e-005,4.21002829748343e-004,1.26203957897009e-002,-0.2262554474196144,1.347311069064249,0,0,0
0210_tilt_050_pan_300_f70.jpg,-1.989962753342321,-1.149616541072652,2.803221069548785,59.96397083937354,50.0059202735111,-1.668698386532102e-002,69.91591842185127,-3.933454645693081e-005,4.21002829748343e-004,1.26203957897009e-002,-0.2262554474196144,1.347311069064249,0,0,0
0211_tilt_050_pan_310_f70.jpg,-1.760324971512967,-1.477745817734634,2.803350582555193,49.98702727377848,50.0023635016537,-1.877942428038294e-003,69.91591842185127,-3.933454645693081e-005,4.21002829748343e-004,1.26203957897009e-002,-0.2262554474196144,1.347311069064249,0,0,0
0212_tilt_050_pan_320_f70.jpg,-1.47852391960892,-1.75896481775896,2.803354353863677,40.03407382740236,49.99670520775672,-1.66747492410521e-002,69.91591842185127,-3.933454645693081e-005,4.21002829748343e-004,1.26203957897009e-002,-0.2262554474196144,1.347311069064249,0,0,0
0213_tilt_050_pan_330_f70.jpg,-1.149198343145872,-1.989265334135286,2.803010418689533,30.02331173524732,49.99567332287688,3.480736175906892e-003,69.91591842185127,-3.933454645693081e-005,4.21002829748343e-004,1.26203957897009e-002,-0.2262554474196144,1.347311069064249,0,0,0
0214_tilt_050_pan_340_f70.jpg,-0.7864869055792403,-2.159167835162698,2.803315920201435,20.01091782577353,49.99816816420245,-5.74366957140806e-003,69.91591842185127,-3.933454645693081e-005,4.21002829748343e-004,1.26203957897009e-002,-0.2262554474196144,1.347311069064249,0,0,0
0215_tilt_050_pan_350_f70.jpg,-0.3987238245845471,-2.263022101259841,2.803673172265439,9.996055357823872,49.98995991100202,9.265235865289784e-004,69.91591842185127,-3.933454645693081e-005,4.21002829748343e-004,1.26203957897009e-002,-0.2262554474196144,1.347311069064249,0,0,0
0216_tilt_060_pan_000_f70.jpg,1.023086350465038e-004,-2.596523032259304,2.376681205064482,3.511082104564717e-002,59.95366156200183,3.137074779353129e-002,69.91591842185127,-3.933454645693081e-005,4.21002829748343e-004,1.26203957897009e-002,-0.2262554474196144,1.347311069064249,0,0,0
0217_tilt_060_pan_010_f70.jpg,0.4505812828963371,-2.557565877084297,2.376664401572881,-9.961310273116938,59.96005097811724,2.464461223709252e-002,69.91591842185127,-3.933454645693081e-005,4.21002829748343e-004,1.26203957897009e-002,-0.2262554474196144,1.347311069064249,0,0,0
0218_tilt_060_pan_020_f70.jpg,0.8883156037628931,-2.440223909401125,2.375823268764131,-19.97765672102065,59.97400351512633,2.205437602653674e-002,69.91591842185127,-3.933454645693081e-005,4.21002829748343e-004,1.26203957897009e-002,-0.2262554474196144,1.347311069064249,0,0,0
0219_tilt_060_pan_030_f70.jpg,1.298195790030752,-2.249745485139696,2.376067009895495,-29.94421476308291,59.97529998088208,3.678024777871656e-002,69.91591842185127,-3.933454645693081e-005,4.21002829748343e-004,1.26203957897009e-002,-0.2262554474196144,1.347311069064249,0,0,0
0220_tilt_060_pan_040_f70.jpg,1.669797862336564,-1.990643527646378,2.375037795613341,-39.97102864199808,60.0010754740455,1.680572590576129e-002,69.91591842185127,-3.933454645693081e-005,4.21002829748343e-004,1.26203957897009e-002,-0.2262554474196144,1.347311069064249,0,0,0
0221_tilt_060_pan_050_f70.jpg,1.990261425752323,-1.670207747233677,2.374988965130117,-49.97691119358336,60.00154061997513,1.895422448886841e-002,69.91591842185127,-3.933454645693081e-005,4.21002829748343e-004,1.26203957897009e-002,-0.2262554474196144,1.347311069064249,0,0,0
0222_tilt_060_pan_060_f70.jpg,2.250148602576346,-1.298287437687072,2.375212216571492,-59.99934015032452,59.99335238792168,1.651190928158843e-002,69.91591842185127,-3.933454645693081e-005,4.21002829748343e-004,1.26203957897009e-002,-0.2262554474196144,1.347311069064249,0,0,0
0223_tilt_060_pan_070_f70.jpg,2.442283755206002,-0.8884300388925708,2.374546058880365,-69.99037108021392,60.01568946478636,1.681905149492864e-002,69.91591842185127,-3.933454645693081e-005,4.21002829748343e-004,1.26203957897009e-002,-0.2262554474196144,1.347311069064249,0,0,0
0224_tilt_060_pan_080_f70.jpg,2.559304260525691,-0.4503205606490295,2.374484038949613,-80.02764555641959,60.0154738253676,-2.511344204142315e-003,69.91591842185127,-3.933454645693081e-005,4.21002829748343e-004,1.26203957897009e-002,-0.2262554474196144,1.347311069064249,0,0,0
0225_tilt_060_pan_090_f70.jpg,2.598191182738971,5.261057665202093e-004,2.374764664118563,-90.00215947371419,60.00431005732008,7.966869672717305e-003,69.91591842185127,-3.933454645693081e-005,4.21002829748343e-004,1.26203957897009e-002,-0.2262554474196144,1.347311069064249,0,0,0
0226_tilt_060_pan_100_f70.jpg,2.559368169901545,0.4526242454371129,2.374374659338831,-100.0344135821123,60.0230511364217,-2.747485944286766e-003,69.91591842185127,-3.933454645693081e-005,4.21002829748343e-004,1.26203957897009e-002,-0.2262554474196144,1.347311069064249,0,0,0
0227_tilt_060_pan_110_f70.jpg,2.442419601072415,0.8882216145252965,2.374593331563164,-109.9651416335554,60.01729033590895,1.574158763852624e-002,69.91591842185127,-3.933454645693081e-005,4.21002829748343e-004,1.26203957897009e-002,-0.2262554474196144,1.347311069064249,0,0,0
0228_tilt_060_pan_120_f70.jpg,2.250563831443873,1.298021899493025,2.374676865155779,-119.9936701915644,60.00719311304027,-1.775265974675181e-002,69.91591842185127,-3.933454645693081e-005,4.21002829748343e-004,1.26203957897009e-002,-0.2262554474196144,1.347311069064249,0,0,0
0229_tilt_060_pan_130_f70.jpg,1.990301982861749,1.670393202703939,2.374403832807769,-130.0131920105584,60.01482060987503,-7.637466402153664e-003,69.91591842185127,-3.933454645693081e-005,4.21002829748343e-004,1.26203957897009e-002,-0.2262554474196144,1.347311069064249,0,0,0
0230_tilt_060_pan_140_f70.jpg,1.669643957031926,1.989946065245232,2.374792363927467,-140.0023311178463,60.00020275849317,-1.182739858417241e-003,69.91591842185127,-3.933454645693081e-005,4.21002829748343e-004,1.26203957897009e-002,-0.2262554474196144,1.347311069064249,0,0,0
0231_tilt_060_pan_150_f70.jpg,1.29707298616862,2.251071294149918,2.374896000826723,-150.0590384317212,60.00075196389343,-8.851932552049966e-003,69.91591842185127,-3.933454645693081e-005,4.21002829748343e-004,1.26203957897009e-002,-0.2262554474196144,1.347311069064249,0,0,0
0232_tilt_060_pan_160_f70.jpg,0.8861278939525681,2.440947661141631,2.375923199526885,-160.0648488576603,59.97028247332947,-1.371221686542085e-002,69.91591842185127,-3.933454645693081e-005,4.21002829748343e-004,1.26203957897009e-002,-0.2262554474196144,1.347311069064249,0,0,0
0233_tilt_060_pan_170_f70.jpg,0.450470219363196,2.557861045263085,2.376112966572431,-169.9999605955605,59.97362538856414,1.248554071607044e-002,69.91591842185127,-3.933454645693081e-005,4.21002829748343e-004,1.26203957897009e-002,-0.2262554474196144,1.347311069064249,0,0,0
0234_tilt_060_pan_180_f70.jpg,-2.291135283338499e-004,2.598331672714982,2.375217930893649,-179.9913906464801,59.99840875642063,1.482697402659368e-002,69.91591842185127,-3.933454645693081e-005,4.21002829748343e-004,1.26203957897009e-002,-0.2262554474196144,1.347311069064249,0,0,0
0235_tilt_060_pan_190_f70.jpg,-0.4519657315720753,2.55893092571115,2.375287491430588,170.0049258914951,60.00014220755596,2.180650869264345e-002,69.91591842185127,-3.933454645693081e-005,4.21002829748343e-004,1.26203957897009e-002,-0.2262554474196144,1.347311069064249,0,0,0
0236_tilt_060_pan_200_f70.jpg,-0.888568027127502,2.441323588069138,2.375294466643465,160.0154691047341,59.99734376325173,1.595307736360855e-002,69.91591842185127,-3.933454645693081e-005,4.21002829748343e-004,1.26203957897009e-002,-0.2262554474196144,1.347311069064249,0,0,0
0237_tilt_060_pan_210_f70.jpg,-1.298439066207691,2.248899429567644,2.375952145019483,150.0400166217485,59.97562073938978,3.899385353600818e-002,69.91591842185127,-3.933454645693081e-005,4.21002829748343e-004,1.26203957897009e-002,-0.2262554474196144,1.347311069064249,0,0,0
0238_tilt_060_pan_220_f70.jpg,-1.670174625887548,1.98972503259202,2.37539808021934,140.001212690643,59.9929270752609,1.258884158803236e-002,69.91591842185127,-3.933454645693081e-005,4.21002829748343e-004,1.26203957897009e-002,-0.2262554474196144,1.347311069064249,0,0,0
0239_tilt_060_pan_230_f70.jpg,-1.989763255026106,1.669095687664154,2.374679106717402,129.9993188346297,59.99746359375754,9.442429576446183e-003,69.91591842185127,-3.933454645693081e-005,4.21002829748343e-004,1.26203957897009e-002,-0.2262554474196144,1.347311069064249,0,0,0
0240_tilt_060_pan_240_f70.jpg,-2.250243671549638,1.298308398988975,2.374816363798673,119.982242278791,60.00390310607794,1.725820753956707e-003,69.91591842185127,-3.933454645693081e-005,4.21002829748343e-004,1.26203957897009e-002,-0.2262554474196144,1.347311069064249,0,0,0
0241_tilt_060_pan_250_f70.jpg,-2.441228556424091,0.8878661462015403,2.374744578926216,109.9669104093254,60.00369887127914,-1.284372787888012e-002,69.91591842185127,-3.933454645693081e-005,4.21002829748343e-004,1.26203957897009e-002,-0.2262554474196144,1.347311069064249,0,0,0
0242_tilt_060_pan_260_f70.jpg,-2.558176696490762,0.4514450694356795,2.374732493966686,99.98704770156152,60.0036541075383,-1.396719527648138e-002,69.91591842185127,-3.933454645693081e-005,4.21002829748343e-004,1.26203957897009e-002,-0.2262554474196144,1.347311069064249,0,0,0
0243_tilt_060_pan_270_f70.jpg,-2.596935264570068,1.54007624804304e-003,2.374996139179283,90.08251181052154,59.9925263812932,4.083560352998903e-002,69.91591842185127,-3.933454645693081e-005,4.21002829748343e-004,1.26203957897009e-002,-0.2262554474196144,1.347311069064249,0,0,0
0244_tilt_060_pan_280_f70.jpg,-2.559677397362401,-0.4506657349882539,2.374340881987091,80.04089344127091,60.02475508449442,2.073666871637746e-002,69.91591842185127,-3.933454645693081e-005,4.21002829748343e-004,1.26203957897009e-002,-0.2262554474196144,1.347311069064249,0,0,0
0245_tilt_060_pan_290_f70.jpg,-2.441831540154134,-0.8885037575160698,2.374142394788898,69.99066524501565,60.02173751721747,-1.247476808420883e-002,69.91591842185127,-3.933454645693081e-005,4.21002829748343e-004,1.26203957897009e-002,-0.2262554474196144,1.347311069064249,0,0,0
0246_tilt_060_pan_300_f70.jpg,-2.250106206292339,-1.299614114929087,2.374689652687264,59.94677787266181,60.01169694411892,-3.705469918557817e-002,69.91591842185127,-3.933454645693081e-005,4.21002829748343e-004,1.26203957897009e-002,-0.2262554474196144,1.347311069064249,0,0,0
0247_tilt_060_pan_310_f70.jpg,-1.990398109321031,-1.670008542074993,2.374834947452579,49.98196455819934,60.00663631779613,-1.887660424495319e-002,69.91591842185127,-3.933454645693081e-005,4.21002829748343e-004,1.26203957897009e-002,-0.2262554474196144,1.347311069064249,0,0,0
0248_tilt_060_pan_320_f70.jpg,-1.670297660479577,-1.989891925254377,2.374634984617718,40.00752463728229,60.00791475670617,-4.938350309990894e-003,69.91591842185127,-3.933454645693081e-005,4.21002829748343e-004,1.26203957897009e-002,-0.2262554474196144,1.347311069064249,0,0,0
0249_tilt_060_pan_330_f70.jpg,-1.298411008951423,-2.249366832823007,2.375220181581224,29.98313692902725,59.98881871938102,-1.326396742063214e-002,69.91591842185127,-3.933454645693081e-005,4.21002829748343e-004,1.26203957897009e-002,-0.2262554474196144,1.347311069064249,0,0,0
0250_tilt_060_pan_340_f70.jpg,-0.8883257359580781,-2.440358361444401,2.375566813423813,19.99846125880871,59.97937323336826,-6.779853139993054e-003,69.91591842185127,-3.933454645693081e-005,4.21002829748343e-004,1.26203957897009e-002,-0.2262554474196144,1.347311069064249,0,0,0
0251_tilt_060_pan_350_f70.jpg,-0.4519982128457586,-2.557742201480384,2.375568499714459,10.03246867934057,59.98371029376694,6.746166976922076e-003,69.91591842185127,-3.933454645693081e-005,4.21002829748343e-004,1.26203957897009e-002,-0.2262554474196144,1.347311069064249,0,0,0
0252_tilt_070_pan_000_f70.jpg,3.066752905821724e-004,-2.818478049938594,1.902347395093289,1.344994812282935e-002,69.97228465457688,1.734934148992665e-002,69.91591842185127,-3.933454645693081e-005,4.21002829748343e-004,1.26203957897009e-002,-0.2262554474196144,1.347311069064249,0,0,0
